,City,Latitude,Longitude,Max Temp,Humidity,Cloudiness,Wind Speed,Country,Date
0,Chokurdakh,70.6333,147.9167,43.27,72,96,12.46,RU,1627344000
1,Kamsack,51.5667,-101.9009,84.88,23,16,7.9,CA,1627344000
2,Lorengau,-2.0226,147.2712,84.88,74,72,3.4,PG,1627344000
3,Longyearbyen,78.2186,15.6401,43.18,87,83,0.94,SJ,1627344000
4,Hindupur,13.8289,77.4933,72.12,82,93,9.42,IN,1627344000
5,Simao,22.7886,100.9748,65.46,99,40,0.65,CN,1627344000
6,Grindavik,63.8424,-22.4338,50.34,85,83,17.43,IS,1627344000
7,Ati,13.2154,18.3353,79.77,70,90,6.15,TD,1627344000
8,Vardø,70.3705,31.1107,46.42,86,58,7.58,NO,1627344000
9,Arcata,40.8665,-124.0828,67.35,74,34,5.77,US,1627344000
10,Ribeira Grande,38.5167,-28.7,70.93,88,12,10.11,PT,1627344000
11,Coolum Beach,-26.5333,153.1,65.79,64,0,2.89,AU,1627344000
12,Kruisfontein,-34.0033,24.7314,63.9,26,84,15.64,ZA,1627344000
13,Hilo,19.7297,-155.09,78.64,85,77,7.56,US,1627344000
14,Ponta do Sol,32.6667,-17.1,72.19,83,3,7.25,PT,1627344000
15,Pañgobilian,8.8011,117.8594,84.13,76,88,10.29,PH,1627344000
16,Kutina,45.475,16.7819,72.0,54,73,3.2,HR,1627344000
17,Saint-Philippe,-21.3585,55.7679,68.36,79,77,11.68,RE,1627344000
18,Gunjur,13.2019,-16.7339,80.4,81,58,13.09,GM,1627344000
19,Kapaa,22.0752,-159.319,81.91,72,28,13.22,US,1627344000
20,Wilmington,34.2257,-77.9447,84.36,76,29,8.41,US,1627344000
21,Mackenzie,55.2999,-123.1698,61.29,72,86,5.3,CA,1627344000
22,Acapulco de Juárez,16.8634,-99.8901,85.57,75,79,4.72,MX,1627344000
23,Chiang Klang,19.2938,100.8617,74.91,99,95,1.97,TH,1627344000
24,Cherskiy,68.75,161.3,53.8,55,5,18.39,RU,1627344000
25,Dikson,73.5069,80.5464,38.16,100,100,3.53,RU,1627344000
26,Port Elizabeth,-33.918,25.5701,64.31,29,53,9.75,ZA,1627344000
27,Rocha,-34.4833,-54.3333,47.37,84,15,7.07,UY,1627344000
28,Los Llanos de Aridane,28.6585,-17.9182,68.9,91,31,14.88,ES,1627344000
29,Villa María,-32.4075,-63.2402,55.81,41,8,12.41,AR,1627344000
30,Wanlaweyn,2.6185,44.8938,73.99,81,78,17.02,SO,1627344000
31,Bluff,-46.6,168.3333,49.78,77,35,20.38,NZ,1627344000
32,Puerto Ayora,-0.7393,-90.3518,72.77,81,40,10.67,EC,1627344000
33,Sokołów Podlaski,52.4068,22.2531,64.9,95,87,7.74,PL,1627344000
34,Saskylakh,71.9167,114.0833,54.63,74,52,7.09,RU,1627344000
35,New Norfolk,-42.7826,147.0587,54.39,84,100,4.76,AU,1627344000
36,Elizabeth City,36.2946,-76.2511,84.96,71,34,7.74,US,1627344000
37,São Filipe,14.8961,-24.4956,75.42,82,23,9.55,CV,1627344000
38,Waingapu,-9.6567,120.2641,77.85,79,81,7.02,ID,1627344000
39,Kalmunai,7.4167,81.8167,81.81,69,99,1.39,LK,1627344000
40,Lakes Entrance,-37.8811,147.981,59.81,54,82,6.82,AU,1627344000
41,Hobart,-42.8794,147.3294,54.46,87,83,5.7,AU,1627344000
42,Norman Wells,65.282,-126.8329,64.31,56,93,6.26,CA,1627344000
43,Punta Arenas,-53.15,-70.9167,42.49,78,33,10.47,CL,1627344000
44,Homer,59.6425,-151.5483,57.54,78,3,6.64,US,1627344000
45,Arraial do Cabo,-22.9661,-42.0278,71.17,80,0,27.22,BR,1627344000
46,Kuito,-12.3833,16.9333,52.23,39,71,3.74,AO,1627344000
47,Nikolskoye,59.7035,30.7861,64.49,69,13,3.56,RU,1627344000
48,Winnemucca,40.973,-117.7357,96.84,17,35,14.52,US,1627344000
49,Mataura,-46.1927,168.8643,47.05,92,51,3.91,NZ,1627344000
50,Ushuaia,-54.8,-68.3,34.52,85,60,3.36,AR,1627344000
51,São João da Barra,-21.6403,-41.0511,72.99,81,0,18.23,BR,1627344000
52,Basco,20.4487,121.9702,82.87,88,99,25.28,PH,1627344000
53,Albany,42.6001,-73.9662,78.98,55,0,7.65,US,1627344000
54,Andenes,69.3143,16.1194,51.4,94,73,14.0,NO,1627344000
55,East London,-33.0153,27.9116,65.44,26,96,11.99,ZA,1627344000
56,Hambantota,6.1241,81.1185,79.9,94,98,16.91,LK,1627344000
57,Catuday,16.2923,119.8062,81.73,82,95,19.98,PH,1627344000
58,Thompson,55.7435,-97.8558,76.08,26,15,6.26,CA,1627344000
59,Bridlington,54.0831,-0.1919,61.16,88,21,9.73,GB,1627344000
60,Eyl,7.9803,49.8164,79.05,62,71,21.5,SO,1627344000
61,Almeirim,-1.5233,-52.5817,82.81,59,96,2.71,BR,1627344000
62,Esperance,-33.8667,121.9,56.1,69,48,34.34,AU,1627344000
63,Yellowknife,62.456,-114.3525,67.3,59,76,12.71,CA,1627344000
64,Rikitea,-23.1203,-134.9692,74.64,77,91,18.23,PF,1627344000
65,Vaini,-21.2,-175.2,75.6,80,83,19.51,TO,1627344000
66,Dŭstí,37.3481,68.664,85.95,18,1,5.99,TJ,1627344000
67,Nishihara,26.1842,127.7558,81.75,93,93,10.89,JP,1627344000
68,Qaqortoq,60.7167,-46.0333,51.73,77,18,2.95,GL,1627344000
69,Bredasdorp,-34.5322,20.0403,54.03,56,90,4.85,ZA,1627344000
70,Laas,46.6166,10.7002,62.19,88,45,2.84,IT,1627344000
71,Zheleznodorozhnyy,55.7503,38.0042,66.4,57,97,1.57,RU,1627344000
72,Kieta,-6.2167,155.6333,85.28,77,41,4.65,PG,1627344000
73,Hualmay,-11.0964,-77.6139,66.33,79,27,10.29,PE,1627344000
74,Shubarshi,48.5872,57.1869,69.64,30,10,15.17,KZ,1627344000
75,Barrow,71.2906,-156.7887,45.5,95,93,6.2,US,1627344000
76,Hermanus,-34.4187,19.2345,56.07,64,38,7.02,ZA,1627344000
77,Chhāpar,27.8167,74.4,81.81,80,100,23.33,IN,1627344000
78,Esim,4.8699,-2.2405,76.55,75,91,11.12,GH,1627344000
79,Hong Kong,22.2855,114.1577,86.41,81,94,5.75,HK,1627344000
80,Altay,47.8667,88.1167,71.19,51,7,3.6,CN,1627344000
81,Tasiilaq,65.6145,-37.6368,45.72,87,48,4.25,GL,1627344000
82,Rosarito,32.3333,-117.0333,73.15,76,62,8.5,MX,1627344000
83,Gimli,50.6336,-96.9907,74.34,58,89,9.66,CA,1627344000
84,Tilichiki,60.4667,166.1,53.8,98,100,3.87,RU,1627344000
85,Katobu,-4.9408,122.5276,77.79,87,30,3.89,ID,1627344000
86,Itarema,-2.9248,-39.9167,79.5,79,27,18.32,BR,1627344000
87,Castro,-24.7911,-50.0119,59.83,63,4,4.54,BR,1627344000
88,Pimentel,-6.8367,-79.9342,68.72,82,31,15.99,PE,1627344000
89,Narāyangarh,30.4833,77.1333,81.59,73,100,4.32,IN,1627344000
90,Batagay,67.6333,134.6333,58.32,78,66,12.15,RU,1627344000
91,Kiryat Gat,31.61,34.7642,79.32,81,0,5.14,IL,1627344000
92,Carnarvon,-24.8667,113.6333,68.52,78,63,19.28,AU,1627344000
93,Athens,37.9795,23.7162,80.24,28,0,7.96,GR,1627344000
94,San Patricio,28.017,-97.5169,91.18,42,5,11.36,US,1627344000
95,Port Alfred,-33.5906,26.891,62.49,32,99,9.91,ZA,1627344000
96,Hithadhoo,-0.6,73.0833,80.31,79,96,7.92,MV,1627344000
97,Zyryanka,65.75,150.85,56.21,48,60,16.4,RU,1627344000
98,Ahipara,-35.1667,173.1667,58.86,73,18,16.67,NZ,1627344000
99,Agirish,61.9247,63.0231,50.27,93,44,4.38,RU,1627344000
100,Mandiana,10.6333,-8.6833,74.43,89,55,5.44,GN,1627344000
101,Talara,-4.5772,-81.2719,74.16,73,1,14.74,PE,1627344000
102,Waipawa,-41.4122,175.5153,49.15,76,69,12.08,NZ,1627344000
103,Zhigansk,66.7697,123.3711,57.58,71,16,16.87,RU,1627344000
104,Alice Springs,-23.7,133.8833,67.53,20,48,23.33,AU,1627344000
105,Merauke,-8.4667,140.3333,79.83,80,93,13.53,ID,1627344000
106,Klaksvík,62.2266,-6.589,53.56,99,100,5.7,FO,1627344000
107,Karratha,-20.7377,116.8463,69.89,70,42,7.23,AU,1627344000
108,Puro,12.4841,123.3827,83.98,78,93,20.69,PH,1627344000
109,Morondava,-20.2833,44.2833,67.53,64,40,10.51,MG,1627344000
110,Alihe,50.5667,123.7167,67.17,93,100,2.77,CN,1627344000
111,Cape Town,-33.9258,18.4232,58.17,56,2,10.58,ZA,1627344000
112,Shimanovsk,52.0,127.7,70.61,92,99,6.35,RU,1627344000
113,Aswān,24.0934,32.907,90.59,22,7,11.81,EG,1627344000
114,Upernavik,72.7868,-56.1549,45.34,75,100,3.91,GL,1627344000
115,Tiksi,71.6872,128.8694,39.04,88,80,10.07,RU,1627344000
116,Ushtobe,45.2514,77.9838,73.98,54,3,12.5,KZ,1627344000
117,Porto-Novo,6.4965,2.6036,77.59,77,28,10.74,BJ,1627344000
118,Dergachi,51.2328,48.7659,63.07,51,2,3.78,RU,1627344000
119,Souillac,-20.5167,57.5167,69.49,89,74,14.2,MU,1627344000
120,Yueyang,29.3333,113.0919,82.4,82,2,8.16,CN,1627344000
121,Ipixuna,-1.7625,-48.8043,81.9,78,67,4.29,BR,1627344000
122,Oxelösund,58.6706,17.1015,66.22,80,22,8.59,SE,1627344000
123,Jamestown,42.097,-79.2353,77.56,58,15,5.91,US,1627344000
124,Wewak,-3.5534,143.6268,81.52,85,65,8.14,PG,1627344000
125,Muros,42.7762,-9.0603,64.08,84,41,5.91,ES,1627344000
126,Severo-Kuril'sk,50.6789,156.125,60.76,90,100,7.43,RU,1627344000
127,Emet,39.343,29.2585,61.45,75,0,4.07,TR,1627344000
128,Balkhash,46.844,74.9804,70.7,45,0,18.88,KZ,1627344000
129,Bundaberg,-24.85,152.35,66.2,63,0,4.03,AU,1627344000
130,Tabory,58.5198,64.5495,51.28,77,67,5.5,RU,1627344000
131,Gouré,13.9835,10.2704,76.12,73,100,8.68,NE,1627344000
132,Dingle,10.9995,122.6711,83.14,83,100,13.87,PH,1627344000
133,Abéché,13.8292,20.8324,74.8,86,100,3.49,TD,1627344000
134,Pisco,-13.7,-76.2167,66.38,76,0,0.47,PE,1627344000
135,Qaanaaq,77.484,-69.3632,42.33,73,100,9.66,GL,1627344000
136,Torbay,47.6666,-52.7314,61.12,80,60,7.43,CA,1627344000
137,Aykhal,66.0,111.5,79.88,53,13,2.59,RU,1627344000
138,George Town,5.4112,100.3354,81.1,85,43,4.59,MY,1627344000
139,Aasiaat,68.7098,-52.8699,41.68,96,100,15.35,GL,1627344000
140,Albion,42.2431,-84.753,83.16,53,1,4.9,US,1627344000
141,Muncar,-8.4333,114.3333,75.31,85,43,0.56,ID,1627344000
142,Al Bardīyah,31.7561,25.0865,78.15,68,0,6.64,LY,1627344000
143,Khatanga,71.9667,102.5,63.19,66,43,17.74,RU,1627344000
144,Kavieng,-2.5744,150.7967,84.7,71,49,6.38,PG,1627344000
145,Vostok,46.4856,135.8833,81.95,80,85,2.19,RU,1627344000
146,Ngawen,-7.0032,111.3129,71.24,88,1,2.84,ID,1627344000
147,Lebu,-37.6167,-73.65,48.04,69,10,17.09,CL,1627344000
148,Hohhot,40.8106,111.6522,70.95,73,18,4.27,CN,1627344000
149,Caravelas,-17.7125,-39.2481,70.65,82,5,5.37,BR,1627344000
150,Maple Creek,49.9168,-109.4848,92.12,22,0,7.63,CA,1627344000
151,Idlib,35.9306,36.6339,75.54,64,0,7.83,SY,1627344000
152,Busselton,-33.65,115.3333,52.79,69,100,29.51,AU,1627344000
153,Muroto-misakicho,33.2833,134.15,80.22,77,75,5.55,JP,1627344000
154,Tuktoyaktuk,69.4541,-133.0374,47.7,77,91,10.71,CA,1627344000
155,Verāval,20.9,70.3667,81.46,87,100,17.56,IN,1627344000
156,Labuhan,-6.8844,112.2051,74.61,85,5,6.38,ID,1627344000
157,Kyshtovka,56.555,76.6271,50.47,83,9,6.4,RU,1627344000
158,Bom Jardim,-7.7958,-35.5872,72.64,89,19,3.33,BR,1627344000
159,Charqueadas,-29.9547,-51.6253,64.27,99,100,2.86,BR,1627344000
160,Cabedelo,-6.9811,-34.8339,76.98,82,8,9.75,BR,1627344000
161,Mount Gambier,-37.8333,140.7667,51.53,70,42,14.09,AU,1627344000
162,Borovoy,55.4333,86.0833,59.99,90,83,7.52,RU,1627344000
163,Brae,60.3964,-1.353,58.82,96,85,13.38,GB,1627344000
164,Alofi,-19.0595,-169.9187,77.92,74,44,3.38,NU,1627344000
165,Saldanha,-33.0117,17.9442,55.38,83,37,9.82,ZA,1627344000
166,Codrington,-38.2667,141.9667,51.58,70,25,19.19,AU,1627344000
167,Byron Bay,-28.65,153.6167,62.1,60,0,1.1,AU,1627344000
168,Salalah,17.0151,54.0924,78.33,86,82,10.96,OM,1627344000
169,Airai,-8.9266,125.4092,67.89,49,22,3.18,TL,1627344000
170,Katsuura,35.1333,140.3,73.89,87,96,23.96,JP,1627344000
171,Eureka,40.8021,-124.1637,62.22,76,100,6.46,US,1627344000
172,Garoowe,8.4054,48.4845,79.03,47,94,21.7,SO,1627344000
173,Olafsvik,64.8945,-23.7142,49.8,87,100,9.37,IS,1627344000
174,Campbell River,50.0163,-125.2446,76.82,47,35,3.27,CA,1627344000
175,Ilhabela,-23.7781,-45.3581,69.57,57,0,4.47,BR,1627344000
176,Petauke,-14.2426,31.3253,53.64,71,58,12.08,ZM,1627344000
177,Paamiut,61.994,-49.6678,45.61,94,69,9.51,GL,1627344000
178,Codajás,-3.8367,-62.0569,84.87,57,25,2.66,BR,1627344000
179,Ilulissat,69.2167,-51.1,52.47,64,47,9.44,GL,1627344000
180,San Rafael del Sur,11.8485,-86.4384,88.75,58,85,6.51,NI,1627344000
181,Atuona,-9.8,-139.0333,78.19,68,38,21.56,PF,1627344000
182,Moro,26.6646,68.0016,91.33,54,97,9.37,PK,1627344000
183,Saint George,37.1041,-113.5841,89.35,46,42,13.6,US,1627344000
184,Luanda,-8.8368,13.2343,70.74,90,21,5.99,AO,1627344000
185,Taoudenni,22.6783,-3.9836,103.57,8,0,8.1,ML,1627344000
186,Tuatapere,-46.1333,167.6833,48.04,86,64,5.03,NZ,1627344000
187,Cidreira,-30.1811,-50.2056,62.26,98,100,6.87,BR,1627344000
188,Neiafu,-18.65,-173.9833,78.94,81,41,7.87,TO,1627344000
189,Vila Velha,-20.3297,-40.2925,75.45,71,28,6.78,BR,1627344000
190,Lukulu,-14.3707,23.242,54.73,43,98,8.7,ZM,1627344000
191,Vágur,61.4732,-6.8119,52.48,99,100,8.86,FO,1627344000
192,Raja,8.4596,25.678,69.66,92,97,2.73,SS,1627344000
193,Karpathos,35.507,27.2132,75.69,83,1,18.48,GR,1627344000
194,Sa Kaeo,13.75,102.3333,76.08,93,53,6.46,TH,1627344000
195,Honiara,-9.4333,159.95,82.76,81,100,6.58,SB,1627344000
196,Cayenne,4.9333,-52.3333,81.55,81,27,8.52,GF,1627344000
197,Butaritari,3.0707,172.7902,82.71,74,88,8.05,KI,1627344000
198,Ostrovnoy,68.0531,39.5131,45.86,88,100,20.07,RU,1627344000
199,Satipo,-11.2522,-74.6386,84.24,47,23,1.23,PE,1627344000
200,Gijang,35.2442,129.2139,82.09,84,4,9.89,KR,1627344000
201,Lagoa,39.05,-27.9833,70.81,88,77,8.68,PT,1627344000
202,Niterói,-22.8833,-43.1036,74.14,50,0,5.95,BR,1627344000
203,Altamont,42.2068,-121.7372,91.74,24,34,10.56,US,1627344000
204,Port Macquarie,-31.4333,152.9167,60.39,70,2,3.83,AU,1627344000
205,Sur,22.5667,59.5289,91.71,53,72,14.56,OM,1627344000
206,Kribi,2.95,9.9167,76.06,86,87,9.33,CM,1627344000
207,Bajmok,45.9688,19.4243,78.66,42,65,8.37,RS,1627344000
208,Avarua,-21.2078,-159.775,77.7,75,92,12.73,CK,1627344000
209,Mahébourg,-20.4081,57.7,70.09,88,76,15.3,MU,1627344000
210,Sabang,5.8933,95.3214,83.25,77,88,18.88,ID,1627344000
211,High Rock,26.6208,-78.2833,86.4,73,4,9.73,BS,1627344000
212,College,64.8569,-147.8028,69.1,51,73,8.57,US,1627344000
213,Atbasar,51.8,68.3333,56.61,55,9,5.84,KZ,1627344000
214,Greven,52.0936,7.594,64.09,91,58,9.66,DE,1627344000
215,Avera,33.194,-82.5271,90.16,48,12,6.55,US,1627344000
216,Nālūt,30.3333,10.85,85.69,18,0,15.64,LY,1627344000
217,Saint Paul Harbor,57.79,-152.4072,60.55,69,37,6.02,US,1627344000
218,Talnakh,69.4865,88.3972,72.66,77,73,8.08,RU,1627344000
219,Fortuna,40.5982,-124.1573,68.05,74,34,6.78,US,1627344000
220,Enshi,30.3,109.4833,75.25,95,13,0.13,CN,1627344000
221,Twin Falls,42.3505,-114.6445,100.29,14,22,8.77,US,1627344000
222,Erenhot,43.6475,111.9767,67.8,65,21,6.64,CN,1627344000
223,Durban,-29.8579,31.0292,59.25,69,73,11.77,ZA,1627344000
224,Mar del Plata,-38.0023,-57.5575,43.57,65,32,17.18,AR,1627344000
225,Tingo María,-9.2895,-76.0088,79.97,65,20,2.44,PE,1627344000
226,Muzhi,65.3667,64.6667,43.83,80,78,2.93,RU,1627344000
227,Komsomolets,53.7453,62.0708,52.81,64,11,7.58,KZ,1627344000
228,Hobyo,5.3505,48.5268,76.68,75,48,21.72,SO,1627344000
229,Kahului,20.8947,-156.47,81.75,75,48,12.91,US,1627344000
230,Muisne,0.6,-80.0333,80.19,83,90,9.13,EC,1627344000
231,Bengkulu,-3.8004,102.2655,74.17,76,2,5.01,ID,1627344000
232,Kumluca,36.3703,30.2869,86.07,40,0,7.34,TR,1627344000
233,Coquimbo,-29.9533,-71.3436,58.6,76,14,4.65,CL,1627344000
234,Chui,-33.6971,-53.4616,49.77,79,75,10.94,UY,1627344000
235,Okha,53.5739,142.9478,69.44,94,100,7.34,RU,1627344000
236,Provideniya,64.3833,-173.3,49.84,94,93,4.61,RU,1627344000
237,Vung Tau,10.346,107.0843,80.94,81,38,15.61,VN,1627344000
238,Srandakan,-7.9386,110.2506,73.62,88,14,3.33,ID,1627344000
239,Trairi,-3.2778,-39.2689,79.32,78,8,14.2,BR,1627344000
240,Dali,25.7,100.1833,64.29,89,99,1.74,CN,1627344000
241,Eruwa,7.5333,3.4167,71.76,87,84,6.22,NG,1627344000
242,Isangel,-19.55,169.2667,75.42,73,83,15.01,VU,1627344000
243,Hasaki,35.7333,140.8333,75.54,91,100,16.28,JP,1627344000
244,Goderich,43.7501,-81.7165,76.66,67,0,4.65,CA,1627344000
245,Portland,45.5234,-122.6762,90.91,38,42,9.82,US,1627344000
246,Grand Gaube,-20.0064,57.6608,70.57,83,31,18.7,MU,1627344000
247,Saint-Augustin,51.226,-58.6502,62.46,80,99,8.3,CA,1627344000
248,Marsh Harbour,26.5412,-77.0636,83.75,72,8,11.79,BS,1627344000
249,Mankono,8.0586,-6.1897,71.55,94,50,7.0,CI,1627344000
250,Nioro,13.35,-15.75,80.19,71,90,7.34,GM,1627344000
251,Puerto Nariño,-3.7703,-70.3831,81.84,94,99,1.81,CO,1627344000
252,Lewisporte,49.2499,-55.0482,67.86,62,56,8.5,CA,1627344000
253,Rincon,32.296,-81.2354,85.69,77,78,7.25,US,1627344000
254,Nome,64.5011,-165.4064,50.38,95,93,9.13,US,1627344000
255,Constitución,-35.3333,-72.4167,50.61,63,0,12.8,CL,1627344000
256,Faranah,10.0404,-10.7434,71.58,97,94,8.72,GN,1627344000
257,Cabo San Lucas,22.8909,-109.9124,87.51,67,14,8.39,MX,1627344000
258,Narsaq,60.9167,-46.05,56.39,66,22,0.67,GL,1627344000
259,Adrar,20.5022,-10.0711,95.16,12,1,13.8,MR,1627344000
260,Yamada,39.4667,141.95,70.45,98,100,13.02,JP,1627344000
261,Aripuanã,-9.1667,-60.6333,89.92,34,20,0.89,BR,1627344000
262,Vanimo,-2.6741,141.3028,83.14,79,59,5.37,PG,1627344000
263,Alta Floresta,-9.8756,-56.0861,87.35,29,58,2.35,BR,1627344000
264,Micheweni,-4.9667,39.8333,75.16,76,12,14.79,TZ,1627344000
265,Ternate,0.8,127.4,82.22,80,79,9.51,ID,1627344000
266,Killybegs,54.6333,-8.45,60.28,92,100,5.66,IE,1627344000
267,Port Lincoln,-34.7333,135.8667,58.95,50,42,26.37,AU,1627344000
268,Linxia Chengguanzhen,35.6003,103.2064,63.97,57,97,2.26,CN,1627344000
269,Sept-Îles,50.2001,-66.3821,64.96,90,92,4.36,CA,1627344000
270,Makakilo City,21.3469,-158.0858,82.98,58,47,17.09,US,1627344000
271,Znamenskoye,57.1281,73.8282,53.87,74,74,5.44,RU,1627344000
272,San Rafael,-34.6177,-68.3301,49.86,45,4,10.76,AR,1627344000
273,El Dorado,38.7666,-120.5177,87.93,15,92,8.52,US,1627344000
274,Geraldton,-28.7667,114.6,62.92,77,55,26.66,AU,1627344000
275,Cajamar,-23.3519,-46.8813,69.21,37,0,3.22,BR,1627344000
276,Saint-Leu,-21.15,55.2833,68.29,72,50,10.2,RE,1627344000
277,Cabo Rojo,18.0866,-67.1457,82.99,81,99,10.92,PR,1627344000
278,Oddur,4.1213,43.8894,70.45,67,49,18.37,SO,1627344000
279,Keetmanshoop,-26.5833,18.1333,58.42,29,0,12.59,NA,1627344000
280,Punta de Bombón,-17.1717,-71.7931,61.48,83,86,9.35,PE,1627344000
281,Lavrentiya,65.5833,-171.0,45.72,97,100,3.71,RU,1627344000
282,Nador,35.174,-2.9287,74.89,75,0,3.13,MA,1627344000
283,Kyzyl-Suu,42.3414,78.0056,67.59,30,0,5.86,KG,1627344000
284,Arandis,-22.4167,14.9667,66.45,27,0,11.3,NA,1627344000
285,Bamiantong,44.9333,130.5333,85.15,72,95,3.47,CN,1627344000
286,Tolaga Bay,-38.3667,178.3,58.3,66,52,7.78,NZ,1627344000
287,Okhotsk,59.3833,143.3,68.67,75,0,7.27,RU,1627344000
288,Bethel,41.3712,-73.414,81.28,60,15,3.85,US,1627344000
289,Kirakira,-10.4544,161.9205,84.33,79,88,8.1,SB,1627344000
290,Gaspé,48.8334,-64.4819,64.51,95,77,5.08,CA,1627344000
291,Dunedin,-45.8742,170.5036,50.79,60,85,9.98,NZ,1627344000
292,Broken Hill,-31.95,141.4333,57.13,46,8,24.99,AU,1627344000
293,Pierre,44.3683,-100.351,107.2,23,10,11.07,US,1627344000
294,Sembakung,3.8167,117.25,77.29,97,98,1.52,ID,1627344000
295,Kununurra,-15.7667,128.7333,77.7,70,100,3.02,AU,1627344000
296,Canto do Buriti,-8.11,-42.9444,80.29,38,42,5.99,BR,1627344000
297,Dwārka,22.2394,68.9678,82.36,85,100,21.74,IN,1627344000
298,Nanortalik,60.1432,-45.2371,49.86,76,26,0.89,GL,1627344000
299,Tual,-5.6667,132.75,81.09,76,90,16.13,ID,1627344000
300,Quelimane,-17.8786,36.8883,62.76,92,56,4.81,MZ,1627344000
301,Naze,28.3667,129.4833,77.92,85,100,13.38,JP,1627344000
302,Chenzhou,25.8,113.0333,82.54,79,40,2.13,CN,1627344000
303,Iqaluit,63.7506,-68.5145,49.42,75,37,7.63,CA,1627344000
304,Sestri Levante,44.2732,9.3968,74.52,88,48,5.35,IT,1627344000
305,Berlevåg,70.8578,29.0864,45.28,87,70,0.78,NO,1627344000
306,Port Hedland,-20.3167,118.5667,71.24,91,64,10.83,AU,1627344000
307,Mastic Beach,40.7668,-72.8521,82.26,68,22,7.16,US,1627344000
308,Cap Malheureux,-19.9842,57.6142,70.72,83,34,18.19,MU,1627344000
309,Barpeta,26.3167,91.0,81.41,88,100,2.01,IN,1627344000
310,Vestmannaeyjar,63.4427,-20.2734,50.86,89,93,12.17,IS,1627344000
311,Vao,-22.6667,167.4833,68.23,61,96,17.07,NC,1627344000
312,Agua Dulce,18.1333,-94.1333,87.12,70,64,8.77,MX,1627344000
313,Serov,59.6033,60.5787,57.07,69,68,8.55,RU,1627344000
314,Ojinaga,29.5667,-104.4167,101.3,12,11,10.6,MX,1627344000
315,Eugene,44.0521,-123.0867,90.82,33,60,6.98,US,1627344000
316,Pangai,-19.8,-174.35,76.86,77,68,4.18,TO,1627344000
317,Redcar,54.6166,-1.06,61.83,86,28,4.5,GB,1627344000
318,Ancud,-41.8697,-73.8203,45.07,71,62,6.76,CL,1627344000
319,Tocopilla,-22.092,-70.1979,62.26,72,19,10.65,CL,1627344000
320,Regeneração,-6.2378,-42.6883,88.2,30,66,8.52,BR,1627344000
321,Oussouye,12.485,-16.5469,83.79,79,60,7.87,SN,1627344000
322,Boguchany,58.3814,97.4531,71.8,61,86,3.53,RU,1627344000
323,Maniitsoq,65.4167,-52.9,51.85,76,32,13.69,GL,1627344000
324,Ladário,-19.0047,-57.6017,87.6,39,0,3.13,BR,1627344000
325,Sergeevka,53.88,67.4158,57.22,53,82,5.66,KZ,1627344000
326,Gander,48.9682,-54.5906,66.72,64,31,8.66,CA,1627344000
327,Bambous Virieux,-20.3428,57.7575,70.03,88,76,15.19,MU,1627344000
328,Agüimes,27.9054,-15.4461,69.49,81,60,15.79,ES,1627344000
329,Tsalenjikha,42.6044,42.0682,71.38,99,99,1.83,GE,1627344000
330,Egvekinot,66.3167,-179.1667,45.23,94,100,2.24,RU,1627344000
331,Haines Junction,60.7522,-137.5108,52.43,88,100,3.65,CA,1627344000
332,Det Udom,14.906,105.0784,78.04,91,94,7.9,TH,1627344000
333,Arrondissement de Lisieux,49.1667,0.1667,62.38,81,100,5.3,FR,1627344000
334,Limbang,4.75,115.0,79.21,92,96,2.13,MY,1627344000
335,Camacha,33.0833,-16.3333,68.67,79,50,13.8,PT,1627344000
336,Palmas de Monte Alto,-14.2672,-43.1619,74.95,39,14,6.93,BR,1627344000
337,Zavodoukovsk,56.5042,66.5515,56.14,63,99,5.86,RU,1627344000
338,Springbok,-29.6643,17.8865,57.51,36,0,5.77,ZA,1627344000
339,La Ronge,55.1001,-105.2842,72.63,45,35,2.73,CA,1627344000
340,Lake Havasu City,34.4839,-114.3224,98.38,32,24,11.39,US,1627344000
341,Isiro,2.7739,27.616,66.52,99,100,2.48,CD,1627344000
342,Mehamn,71.0357,27.8492,45.54,88,24,3.91,NO,1627344000
343,Linkou,45.3,130.2833,88.05,66,85,2.13,CN,1627344000
344,Burley,42.5357,-113.7928,102.04,11,25,8.37,US,1627344000
345,Māndal,25.45,74.5667,77.02,86,100,10.89,IN,1627344000
346,Bariloche,-41.1456,-71.3082,37.42,61,5,6.91,AR,1627344000
347,Roald,62.5833,6.1333,61.29,91,18,7.65,NO,1627344000
348,Vilela,41.2251,-7.6034,61.86,64,1,3.6,PT,1627344000
349,Boa Vista,2.8197,-60.6733,83.61,67,61,4.72,BR,1627344000
350,Oskarshamn,57.2645,16.4484,67.33,87,75,6.04,SE,1627344000
351,Goundam,16.4145,-3.6708,88.63,51,100,13.33,ML,1627344000
352,Salinas,36.6777,-121.6555,70.65,65,14,8.81,US,1627344000
353,Laramie,41.3114,-105.5911,83.82,17,32,15.77,US,1627344000
354,Mergen,49.1833,125.2167,68.49,96,100,5.3,CN,1627344000
355,Yulara,-25.2406,130.9889,64.76,43,28,17.94,AU,1627344000
356,Pāvilosta,56.8879,21.1859,67.87,76,100,9.4,LV,1627344000
357,Ambilobe,-13.2,49.05,70.36,64,95,3.33,MG,1627344000
358,Ucluelet,48.9329,-125.5528,66.27,79,10,8.39,CA,1627344000
359,Gushikawa,26.3544,127.8686,81.16,93,83,12.77,JP,1627344000
360,Ayan,56.45,138.1667,70.57,65,4,7.63,RU,1627344000
361,Chumikan,54.7183,135.315,71.91,66,100,3.51,RU,1627344000
362,Guerrero Negro,27.9769,-114.0611,78.4,55,0,16.04,MX,1627344000
363,Urucará,-2.5364,-57.76,84.54,51,100,2.46,BR,1627344000
364,Inhambane,-23.865,35.3833,64.72,68,52,8.41,MZ,1627344000
365,Yangi Marg`ilon,40.4272,71.7189,82.56,29,4,4.72,UZ,1627344000
366,Gaogou,34.0175,119.1886,78.53,92,100,17.72,CN,1627344000
367,Safaga,26.7292,33.9365,89.01,46,0,9.48,EG,1627344000
368,Cloquet,46.7216,-92.4594,86.97,43,1,4.74,US,1627344000
369,Sabancuy,18.9667,-91.1833,86.2,64,93,8.59,MX,1627344000
370,Jacksonville,30.3322,-81.6556,80.8,85,83,4.07,US,1627344000
371,Porto Velho,-8.7619,-63.9039,89.29,41,17,0.89,BR,1627344000
372,Flinders,-34.5833,150.8552,63.32,64,78,8.25,AU,1627344000
373,Ikeda,34.8221,135.4298,83.88,80,51,9.82,JP,1627344000
374,Shenjiamen,29.9576,122.298,79.05,90,100,28.43,CN,1627344000
375,City of San Pedro,14.35,121.0167,82.17,82,82,19.37,PH,1627344000
376,Thinadhoo,0.5333,72.9333,81.52,73,99,7.2,MV,1627344000
377,San Vicente,-26.6167,-54.1333,67.87,64,80,2.06,AR,1627344000
378,Swift Current,50.2834,-107.8014,88.21,26,1,7.0,CA,1627344000
379,Balabac,7.9868,117.0645,85.03,77,91,15.17,PH,1627344000
380,Hamilton,39.1834,-84.5333,85.35,53,27,5.77,US,1627344000
381,Balclutha,-46.2339,169.75,48.69,72,84,6.02,NZ,1627344000
382,Dalvik,65.9702,-18.5286,52.5,75,88,6.78,IS,1627344000
383,Chintamani,13.4,78.0667,69.37,84,98,13.09,IN,1627344000
384,Kamenka,51.3223,42.7678,62.26,53,1,4.36,RU,1627344000
385,Brainerd,46.358,-94.2008,94.75,34,2,2.37,US,1627344000
386,Wajir,1.7471,40.0573,75.2,60,51,17.69,KE,1627344000
387,Macas,-2.3167,-78.1167,72.54,84,72,0.92,EC,1627344000
388,Port Hardy,50.6996,-127.4199,60.69,85,83,12.77,CA,1627344000
389,Shache,38.4167,77.2406,87.04,25,12,3.49,CN,1627344000
390,Nyrob,60.733,56.7202,53.19,98,100,9.1,RU,1627344000
391,Yacuiba,-22.038,-63.6797,72.01,45,7,10.63,BO,1627344000
392,Bourail,-21.5667,165.4833,71.92,63,98,8.9,NC,1627344000
393,Chabahar,25.2919,60.643,84.54,86,49,5.44,IR,1627344000
394,Paita,-5.0892,-81.1144,74.71,77,1,16.84,PE,1627344000
395,Porbandar,21.6422,69.6093,82.06,85,100,19.08,IN,1627344000
396,Half Moon Bay,37.4636,-122.4286,68.97,70,76,8.75,US,1627344000
397,Meulaboh,4.1363,96.1285,76.75,89,63,4.34,ID,1627344000
398,Kodinsk,58.6881,99.1844,72.45,63,3,3.33,RU,1627344000
399,Matagami,49.7502,-77.6328,56.75,81,93,6.06,CA,1627344000
400,Nehe,48.4833,124.8333,70.48,96,100,7.94,CN,1627344000
401,Chaman,30.9236,66.4512,85.21,12,27,6.42,PK,1627344000
402,Boundiali,9.5217,-6.4869,71.65,95,66,5.64,CI,1627344000
403,Orange,33.7,-117.7675,77.92,72,78,8.63,US,1627344000
404,Sistranda,63.7256,8.834,63.23,70,59,7.85,NO,1627344000
405,Lillooet,50.6856,-121.942,89.78,23,9,6.96,CA,1627344000
406,Keokuk,40.3973,-91.3849,85.26,59,0,4.05,US,1627344000
407,Arrondissement de Saintes,45.6667,-0.75,62.1,89,100,4.25,FR,1627344000
408,Novoagansk,61.9449,76.6625,50.2,87,98,11.83,RU,1627344000
409,Kaitangata,-46.2817,169.8464,48.61,71,85,8.63,NZ,1627344000
410,Estevan,49.1334,-102.9842,94.86,30,1,6.4,CA,1627344000
411,Hofn,64.2539,-15.2082,52.56,80,99,6.85,IS,1627344000
412,Filingué,14.3521,3.3168,92.23,46,99,14.74,NE,1627344000
413,Hanmer Springs,-42.5167,172.8167,45.18,84,99,3.94,NZ,1627344000
414,Banfora,10.6333,-4.7667,77.58,75,46,6.26,BF,1627344000
415,Vakhrushev,48.9833,142.9667,72.43,83,67,7.65,RU,1627344000
416,Uglegorskiy,48.2427,41.2531,74.7,35,9,11.14,RU,1627344000
417,Bubaque,11.2833,-15.8333,80.29,83,100,12.35,GW,1627344000
418,Faya,18.3851,42.4509,66.38,63,71,5.28,SA,1627344000
419,Humaitá,-7.5061,-63.0208,92.03,35,68,0.58,BR,1627344000
420,Manaure,11.7751,-72.4445,83.44,74,59,17.67,CO,1627344000
421,Sovetskiy,61.3614,63.5842,50.52,89,57,5.5,RU,1627344000
422,Carutapera,-1.195,-46.02,75.88,92,80,6.35,BR,1627344000
423,Dingolfing,48.6333,12.5,62.58,94,96,6.96,DE,1627344000
424,Dromolaxia,34.8761,33.586,83.98,50,0,5.03,CY,1627344000
425,Itainópolis,-7.4469,-41.4783,81.97,43,15,5.12,BR,1627344000
426,Xai-Xai,-25.0519,33.6442,61.23,82,11,3.27,MZ,1627344000
427,Tomatlán,19.9333,-105.25,89.01,62,85,7.43,MX,1627344000
428,Odienné,9.51,-7.5692,71.49,97,21,4.81,CI,1627344000
429,Sungurlu,40.1675,34.3739,65.41,66,3,2.06,TR,1627344000
430,Faanui,-16.4833,-151.75,79.48,74,61,12.5,PF,1627344000
431,Road Town,18.4167,-64.6167,83.43,73,49,16.69,VG,1627344000
432,Polunochnoye,60.8697,60.4153,53.62,85,77,6.76,RU,1627344000
433,Gazojak,41.1875,61.4036,83.44,18,0,11.79,TM,1627344000
434,San Cristobal,7.7669,-72.225,73.85,89,91,3.6,VE,1627344000
435,Ikwiriri,-7.9562,38.9716,67.14,90,89,1.16,TZ,1627344000
436,Mareeba,-17.0,145.4333,71.64,85,71,5.28,AU,1627344000
437,Gumdag,39.2061,54.5906,82.63,70,0,6.69,TM,1627344000
438,Maraã,-1.8333,-65.3667,78.53,81,95,3.49,BR,1627344000
439,Clyde River,70.4692,-68.5914,38.86,91,88,5.59,CA,1627344000
440,Riviere-au-Renard,48.9957,-64.3971,64.18,94,79,8.86,CA,1627344000
441,Ereymentau,51.6199,73.1033,54.52,58,1,2.15,KZ,1627344000
442,Praia da Vitória,38.7333,-27.0667,72.79,89,79,8.86,PT,1627344000
443,Elk City,35.412,-99.4043,92.97,43,19,11.88,US,1627344000
444,Bafoulabé,13.8065,-10.8321,82.94,74,87,2.91,ML,1627344000
445,Mayo,38.8876,-76.5119,85.57,66,28,4.36,US,1627344000
446,Caucayá,-0.1934,-74.7819,77.74,83,77,0.6,CO,1627344000
447,Te Anau,-45.4167,167.7167,46.31,88,55,4.32,NZ,1627344000
448,Ixtapa,20.7,-105.2,85.21,72,83,1.81,MX,1627344000
449,Verkhnyaya Toyma,62.2349,44.9985,44.33,83,57,5.1,RU,1627344000
450,Atar,20.5169,-13.0499,97.0,17,26,3.4,MR,1627344000
451,Pa Sang,18.5262,98.9394,75.9,94,96,1.01,TH,1627344000
452,Yerbogachën,61.2767,108.0108,75.49,67,63,6.44,RU,1627344000
453,Panacan,9.2463,118.4082,83.75,70,91,4.74,PH,1627344000
454,Marsá Maţrūḩ,31.3525,27.2453,78.4,75,31,9.71,EG,1627344000
455,Beringovskiy,63.05,179.3167,53.42,93,100,7.58,RU,1627344000
456,Wanning,18.8003,110.3967,83.03,86,74,7.18,CN,1627344000
457,Quang Ngai,15.1167,108.8,84.22,72,74,4.18,VN,1627344000
458,Tateyama,34.9833,139.8667,75.13,87,81,20.58,JP,1627344000
459,Mana,5.6592,-53.7767,80.06,81,37,6.93,GF,1627344000
460,Isoka,-10.1606,32.6335,46.76,73,29,0.49,ZM,1627344000
461,Nelson Bay,-32.7167,152.15,60.96,65,5,11.01,AU,1627344000
462,Sinjai,-5.1241,120.253,78.69,83,20,2.59,ID,1627344000
463,Saint-Pierre,-21.3393,55.4781,67.89,83,58,11.03,RE,1627344000
464,Sola,-13.8833,167.55,80.22,88,61,16.58,VU,1627344000
465,Fairview,40.8126,-73.999,86.83,37,8,8.39,US,1627344000
466,Mayor Pablo Lagerenza,-19.9309,-60.7718,90.93,24,0,5.37,PY,1627344000
467,Vila,42.0304,-8.1588,56.14,89,8,2.91,PT,1627344000
468,Baykit,61.67,96.37,75.13,67,43,3.65,RU,1627344000
469,Birao,10.2849,22.7882,70.92,96,100,3.94,CF,1627344000
470,Socorro,31.6546,-106.3033,93.74,27,79,2.01,US,1627344000
471,Yuci,37.6803,112.7319,79.9,70,33,1.97,CN,1627344000
472,Mazamari,-11.3258,-74.5308,83.23,50,26,0.78,PE,1627344000
473,Khasan,42.4308,130.6434,77.45,86,65,1.41,RU,1627344000
474,Bloemfontein,-29.1211,26.214,34.9,59,18,6.42,ZA,1627344000
475,Tazovsky,67.4667,78.7,45.79,97,100,18.1,RU,1627344000
476,Kuching,1.55,110.3333,77.7,92,41,2.62,MY,1627344000
477,Santa Marta,11.2408,-74.199,82.26,80,94,4.34,CO,1627344000
478,Itoman,26.1247,127.6694,81.93,93,60,11.65,JP,1627344000
479,El Alto,-4.2714,-81.2147,71.78,78,12,14.29,PE,1627344000
480,Sioux Lookout,50.1001,-91.917,74.53,44,83,6.13,CA,1627344000
481,Richards Bay,-28.783,32.0377,61.9,59,23,14.79,ZA,1627344000
482,Keuruu,62.2667,24.7,64.08,51,94,1.3,FI,1627344000
483,Ajdabiya,30.7554,20.2263,79.74,46,0,8.23,LY,1627344000
484,Guanajuato City,21.0186,-101.2591,76.64,32,51,15.93,MX,1627344000
485,Kiama,-34.6833,150.8667,63.52,62,74,8.03,AU,1627344000
486,Sungai Penuh,-2.0833,101.3833,62.91,89,9,3.02,ID,1627344000
487,Mīāndoāb,36.9694,46.1027,80.35,41,22,3.18,IR,1627344000
488,Cassilândia,-19.1133,-51.7342,77.04,23,0,2.46,BR,1627344000
489,Srednekolymsk,67.45,153.6833,51.73,61,77,14.41,RU,1627344000
490,Asău,46.4333,26.4,66.43,78,74,5.23,RO,1627344000
491,Natal,-5.795,-35.2094,77.65,77,13,8.3,BR,1627344000
492,Clyde,41.3042,-82.9752,83.03,61,0,3.31,US,1627344000
493,Kumul,42.8,93.45,84.15,21,4,13.35,CN,1627344000
494,Tiébissou,7.1574,-5.2257,76.15,96,48,6.8,CI,1627344000
495,Bentiu,9.2333,29.8333,69.03,95,99,2.73,SS,1627344000
496,Kaeo,-35.1,173.7833,58.93,77,40,13.53,NZ,1627344000
497,Rawson,-43.3002,-65.1023,43.34,58,97,30.4,AR,1627344000
498,Preobrazheniye,42.9019,133.9064,79.29,87,93,4.43,RU,1627344000
499,Laguna,38.421,-121.4238,88.18,23,31,16.73,US,1627344000
500,Nan,18.8333,100.6667,72.48,98,97,2.39,TH,1627344000
501,Damara,4.9608,18.7035,73.2,96,100,3.09,CF,1627344000
502,Pevek,69.7008,170.3133,36.64,88,92,16.75,RU,1627344000
503,Sivaki,52.6333,126.75,71.89,86,51,5.26,RU,1627344000
504,Whitehorse,60.7161,-135.0538,51.93,90,93,7.58,CA,1627344000
505,Zhezkazgan,47.8043,67.7144,67.73,32,0,10.36,KZ,1627344000
506,Buraidah,26.326,43.975,97.12,15,32,12.06,SA,1627344000
507,Olinda,-8.0089,-34.8553,75.47,80,10,8.88,BR,1627344000
508,Luganville,-15.5333,167.1667,78.96,85,60,11.27,VU,1627344000
509,Palmer,42.1584,-72.3287,79.07,58,23,4.09,US,1627344000
510,Acaraú,-2.8856,-40.12,79.79,78,39,18.63,BR,1627344000
511,Shelburne,44.0787,-80.2041,77.16,40,6,6.35,CA,1627344000
512,Eenhana,-17.4667,16.3333,53.04,37,0,8.52,NA,1627344000
513,Solnechnyy,50.7214,136.6319,72.54,94,100,2.59,RU,1627344000
514,Mackay,-21.15,149.2,67.62,86,2,7.83,AU,1627344000
515,Lüderitz,-26.6481,15.1594,65.59,49,0,4.83,NA,1627344000
516,Henties Bay,-22.116,14.2845,67.96,60,0,1.01,NA,1627344000
517,Sobolevo,54.4299,31.8996,66.33,69,84,5.48,RU,1627344000
518,Arlit,18.7369,7.3853,98.49,14,100,17.67,NE,1627344000
519,Santa Fe,-31.6333,-60.7,57.74,48,0,10.11,AR,1627344000
520,Coyhaique,-45.5752,-72.0662,37.69,78,78,5.91,CL,1627344000
521,Westport,41.1415,-73.3579,83.55,52,39,6.78,US,1627344000
522,Severomuysk,56.1481,113.4267,60.75,60,1,3.71,RU,1627344000
523,San Roque,36.2107,-5.3842,72.23,68,0,4.21,ES,1627344000
524,Madang,-5.2246,145.7966,80.71,88,97,0.92,PG,1627344000
525,Pitimbu,-7.4706,-34.8086,76.91,83,20,8.81,BR,1627344000
526,Jardim,-21.4803,-56.1381,82.98,32,58,4.07,BR,1627344000
527,Dubbo,-32.25,148.6167,54.61,84,12,10.09,AU,1627344000
528,Gigmoto,13.7796,124.39,83.75,81,100,14.92,PH,1627344000
529,Sanson,-40.2167,175.4167,53.19,82,33,14.94,NZ,1627344000
530,Fort Nelson,58.8053,-122.7002,74.75,35,67,5.08,CA,1627344000
531,Hillsborough,37.5741,-122.3794,68.16,69,76,8.79,US,1627344000
532,Subate,56.0062,25.9076,64.65,75,56,6.46,LV,1627344000
533,Mahibadhoo,3.7833,72.9667,82.17,72,83,5.44,MV,1627344000
534,Sabha,27.0377,14.4283,84.99,21,0,14.58,LY,1627344000
535,Shirokiy,49.758,129.523,72.48,93,100,5.28,RU,1627344000
536,Carupano,10.6678,-63.2585,81.61,79,21,9.35,VE,1627344000
537,Kabalo,-6.05,26.9167,72.5,32,78,4.61,CD,1627344000
538,Shingū,33.7333,135.9833,84.99,75,78,2.08,JP,1627344000
539,Henderson,36.0397,-114.9819,93.49,47,69,17.38,US,1627344000
540,Xining,36.6167,101.7667,56.43,84,82,2.95,CN,1627344000
541,Amapá,1.0,-52.0,74.75,97,100,2.57,BR,1627344000
542,Noumea,-22.2763,166.4572,70.86,84,96,14.54,NC,1627344000
543,Tyret’ Pervaya,53.6703,102.3106,64.9,75,86,10.25,RU,1627344000
544,Durazno,-33.4131,-56.5006,50.18,69,0,9.06,UY,1627344000
545,Nabire,-3.3667,135.4833,82.74,81,87,1.16,ID,1627344000
546,Mossamedes,-15.1961,12.1522,66.07,81,0,1.63,AO,1627344000
547,Namanga,-2.5433,36.7905,60.76,60,62,5.12,KE,1627344000
548,Qeshm,26.9581,56.2719,92.3,75,40,4.23,IR,1627344000
549,Grants,35.1473,-107.8514,78.62,38,55,4.9,US,1627344000
550,Kitob,39.0843,66.8332,81.79,30,0,9.26,UZ,1627344000
551,Elverum,60.8819,11.5623,61.34,85,87,2.66,NO,1627344000
552,Highland Springs,37.546,-77.3278,74.62,87,88,3.36,US,1627344000
553,Chirongui,-12.9319,45.1483,76.93,66,9,20.13,YT,1627344000
554,Kysyl-Syr,63.8986,122.7617,72.52,67,21,8.41,RU,1627344000
555,Dulovo,43.8167,27.15,67.1,54,3,5.5,BG,1627344000
556,Aksu,41.1231,80.2644,84.76,21,0,5.1,CN,1627344000
557,Biak,-0.9131,122.8766,76.93,72,72,6.49,ID,1627344000
558,Samarai,-10.6167,150.6667,78.76,86,100,16.64,PG,1627344000
559,Spassk-Ryazanskiy,54.4072,40.3806,67.86,59,26,5.64,RU,1627344000
560,Yarensk,62.1675,49.0916,43.34,95,32,7.2,RU,1627344000
561,Haverfordwest,51.8017,-4.9691,61.5,89,100,3.91,GB,1627344000
562,Ust-Maya,60.4167,134.5333,76.62,71,5,7.38,RU,1627344000
563,Kuusamo,65.9667,29.1833,51.06,86,27,3.58,FI,1627344000
564,Tromsø,69.6496,18.957,52.84,97,17,3.89,NO,1627344000
565,Lithgow,-33.4833,150.15,49.87,83,76,10.33,AU,1627344000
566,Zhanakorgan,43.9098,67.2495,80.56,26,0,21.81,KZ,1627344000
567,Amahai,-3.3333,128.9167,79.95,86,85,2.04,ID,1627344000
568,Gunnedah,-30.9833,150.25,53.71,84,11,2.91,AU,1627344000
569,Bridgetown,13.1,-59.6167,83.39,72,18,13.31,BB,1627344000
570,Payson,40.0444,-111.7321,89.47,32,48,11.39,US,1627344000
571,Shumskiy,54.8318,99.1328,65.8,79,52,3.94,RU,1627344000
572,Port Hawkesbury,45.6169,-61.3485,65.75,98,92,5.17,CA,1627344000
573,Porto Walter,-8.2686,-72.7439,84.79,49,47,1.5,BR,1627344000
574,Nova Ushytsya,48.8372,27.2743,66.27,71,46,7.52,UA,1627344000
575,Blackwater,-23.5833,148.8833,65.1,54,1,6.87,AU,1627344000
576,San Miguelito,9.0333,-79.5,78.58,87,60,4.88,PA,1627344000
577,Alvinópolis,-20.1067,-43.0489,61.02,65,0,3.29,BR,1627344000
578,Tabou,4.423,-7.3528,76.39,76,100,9.73,CI,1627344000
579,Mattru,7.6244,-11.8332,73.53,96,64,3.22,SL,1627344000
580,Oranjemund,-28.55,16.4333,62.55,57,0,6.62,NA,1627344000
581,Nichinan,31.6,131.3667,81.5,82,10,0.94,JP,1627344000
582,Bekhtery,46.251,32.2927,77.34,52,28,6.29,UA,1627344000
